{"type":"FeatureCollection","features":[{"type":"Feature","geometry":{"type":"Point","coordinates":[7.485322,44.616931]},"properties":{"name":"SCENE CORTESI AL CASTELLO DELLA MANTA","description":"<h2>SCENE CORTESI AL CASTELLO DELLA MANTA</h2>","nid":147,"nothing":"test"}},{"type":"Feature","geometry":{"type":"Point","coordinates":[7.678459,45.054366]},"properties":{"name":"L&#039;INGANNO DEL BELLO. FALSO E IMITAZIONE NELL&#039;ARTE","description":"<h2>L&#039;INGANNO DEL BELLO. FALSO E IMITAZIONE NELL&#039;ARTE</h2>","nid":145,"nothing":"test"}},{"type":"Feature","geometry":{"type":"Point","coordinates":[12.636461,43.724113]},"properties":{"name":"Luca Bellandi - MUSE","description":"<h2>Luca Bellandi - MUSE</h2>","nid":146,"nothing":"test"}},{"type":"Feature","geometry":{"type":"Point","coordinates":[11.937636,44.770288]},"properties":{"name":"II° Premio Nazionale di Pittura &#039;P. Occhi&#039; | EXEMPLO ESSE","description":"<h2>II° Premio Nazionale di Pittura &#039;P. Occhi&#039; | EXEMPLO ESSE</h2>","nid":144,"nothing":"test"}},{"type":"Feature","geometry":{"type":"Point","coordinates":[12.614342,42.051208]},"properties":{"name":"Ricordando Guido. Mostra antologica di Guido Aloise","description":"<h2>Ricordando Guido. Mostra antologica di Guido Aloise</h2>","nid":149,"nothing":"test"}},{"type":"Feature","geometry":{"type":"Point","coordinates":[7.678459,45.054366]},"properties":{"name":"LA CERAMICA LENCI TRA ARTE E GIOCO","description":"<h2>LA CERAMICA LENCI TRA ARTE E GIOCO</h2>","nid":150,"nothing":"test"}},{"type":"Feature","geometry":{"type":"Point","coordinates":[7.686409,45.070417]},"properties":{"name":"PALAZZO MADAMA, LE COLLEZIONI DI ARTI DECORATIVE","description":"<h2>PALAZZO MADAMA, LE COLLEZIONI DI ARTI DECORATIVE</h2>","nid":151,"nothing":"test"}}]}